Region,CLUESSalud,ClavePersonal,UnidadInformacionPREI,ClavePresupuestal,Cve_Deleg_UMAE,NombreDelegacionUMAE,RelacionDelegacion-UMAE,UnidadPresupuestal,NivelAtencion,DenominacionUnidad,TipoServicio,DescripcionTipoServicio,Número de Unidad,NombreUnidad,Direccion,TipoVialidad,NombreVialidad,EntreVialidades,NúmeroExterior,TipoAsentamiento,NombreAsentamiento,Códigopostal,ClaveMunicipioDelegacion,Municipio o Delegacion,ClaveLocalidad,Localidad,ClaveEntidadFederativa,EntidadFederativa,ClaveJurisdiccionSanitaria,JurisdiccionSanitaria,Latitud,Longitud,InicioProductividad,Estatus,Comentarios,Grado de Marginacion,fecha_baja,servicioMedicinaFamiliar
Occidente,JCIMS000366,14HA45,140501,140102062151,14,Jalisco,Jalisco,2151,Segundo Nivel,HGR 45 Guadalajara,06,HGR,45,NA,"Calle San Felipe, No.1014 Colonia Guadalajara Centro C.P.44100, Municipio Guadalajara,Jalisco",Calle,San Felipe,NA,1014,Colonia,Guadalajara Centro,44100,039,Guadalajara,0001,Guadalajara,14,Jalisco,13,Centro Guadalajara,20.6796,-103.3629,1962-03-01 00:00:00.000,Activa,NA,Muy Bajo,NA,NA
Occidente,JCIMS000395,14UA01,142401,140103252110,14,Jalisco,Jalisco,2110,Primer Nivel,UMF 1 Guadalajara,25,UMF,1,NA,"Calzada Del Campesino, No.100 Colonia Guadalajara Centro C.P.44100, Municipio Guadalajara,Jalisco",Calzada,Del Campesino,NA,100,Colonia,Guadalajara Centro,44100,039,Guadalajara,0001,Guadalajara,14,Jalisco,13,Centro Guadalajara,20.6743,-103.3578,1958-01-01 00:00:00.000,Activa,NA,Muy Bajo,NA,TRUE
Occidente,JCIMS000412,14UA02,142402,140104252110,14,Jalisco,Jalisco,2110,Primer Nivel,UMF 2 Guadalajara,25,UMF,2,NA,"Calle Jesús Gárcia, No.1480 Barrio Santa Teresita C.P.44600, Municipio Guadalajara,Jalisco",Calle,Jesús Gárcia,NA,1480,Barrio,Santa Teresita,44600,039,Guadalajara,0001,Guadalajara,14,Jalisco,13,Centro Guadalajara,20.6891,-103.367,1966-01-01 00:00:00.000,Activa,NA,Muy Bajo,NA,TRUE
Occidente,JCIMS000482,14UA52,142403,140113252110,14,Jalisco,Jalisco,2110,Primer Nivel,UMF-UMAA 52 Guadalajara,25,UMF-UMAA,52,NA,"Boulevard Marcelino Garcia Barragan , No.1596 Colonia Olímpica C.P.44430, Municipio Guadalajara,Jalisco",Boulevard,Marcelino Garcia Barragan,entre Rio Suchiate y Rio Mezcala,1596,Colonia,Olímpica,44430,039,Guadalajara,0001,Guadalajara,14,Jalisco,13,Centro Guadalajara,20.6556,-103.3307,1980-10-01 00:00:00.000,Activa,NA,Muy Bajo,NA,TRUE
Occidente,JCIMS000482,14UA52,142403,140113UA2110,14,Jalisco,Jalisco,2110,Segundo Nivel,UMAA 52 Guadalajara,UA,UMAA,52,NA,"Boulevard Marcelino Garcia Barragan , No.1596 Colonia Olímpica C.P.44430, Municipio Guadalajara,Jalisco",Boulevard,Marcelino Garcia Barragan,entre Rio Suchiate y Rio Mezcala,1596,Colonia,Olímpica,44430,039,Guadalajara,0001,Guadalajara,14,Jalisco,13,Centro Guadalajara,20.6556363,-103.3307199,1980-10-01 00:00:00.000,Activa,NA,Muy Bajo,NA,NA
Occidente,JCIMS000470,14UA51,142404,140115252110,14,Jalisco,Jalisco,2110,Primer Nivel,UMF 51 Guadalajara,25,UMF,51,NA,"Calle Magisterio , No.1425 Colonia Observatorio C.P.44266, Municipio Guadalajara,Jalisco",Calle,Magisterio,y Zacatecas,1425,Colonia,Observatorio,44266,039,Guadalajara,0001,Guadalajara,14,Jalisco,13,Centro Guadalajara,20.6981,-103.3516,1987-04-01 00:00:00.000,Activa,NA,Muy Bajo,NA,TRUE
Occidente,JCIMS000506,14UA78,142405,140123252110,14,Jalisco,Jalisco,2110,Primer Nivel,UMF 78 Guadalajara,25,UMF,78,NA,"Avenida San Jacinto , No.588 Colonia San Rafael C.P.44810, Municipio Guadalajara,Jalisco",Avenida,San Jacinto,"y Av, del Parque",588,Colonia,San Rafael,44810,039,Guadalajara,0001,Guadalajara,14,Jalisco,13,Centro Guadalajara,20.6517,-103.3029,1988-07-01 00:00:00.000,Activa,NA,Muy Bajo,NA,TRUE
Occidente,JCIMS000540,14UA92,142406,140130252110,14,Jalisco,Jalisco,2110,Primer Nivel,UMF 92 Miravalle,25,UMF,92,NA,"Avenida Gobernador Luis G. Curiel , No.S/N Unidad Habitacional Miravalle C.P.44990, Municipio Guadalajara,Jalisco",Avenida,Gobernador Luis G. Curiel,entre. Av. de La Pintura y Salome Piña,S/N,Unidad Habitacional,Miravalle,44990,039,Guadalajara,0001,Guadalajara,14,Jalisco,13,Centro Guadalajara,20.6146,-103.3451,1983-01-01 00:00:00.000,Activa,NA,Muy Bajo,NA,TRUE
Occidente,JCIMS000330,14HC14,140101,140134012151,14,Jalisco,Jalisco,2151,Segundo Nivel,HGZ 14 Guadalajara,01,HGZ,14,NA,"Avenida Revolución , No.2735 Colonia Jardines de la Paz C.P.44860, Municipio Guadalajara,Jalisco",Avenida,Revolución,y Av. Rio Nilo,2735,Colonia,Jardines de la Paz,44860,039,Guadalajara,0001,Guadalajara,14,Jalisco,13,Centro Guadalajara,20.6447,-103.3052,1973-09-01 00:00:00.000,Activa,NA,Muy Bajo,NA,NA
Occidente,JCIMS000436,14UA34,142408,140138252110,14,Jalisco,Jalisco,2110,Primer Nivel,UMF 34 Guadalajara,25,UMF,34,NA,"Avenida López de Legaspi., No.1722 Unidad Habitacional 18 de Marzo C.P.44960, Municipio Guadalajara,Jalisco",Avenida,López de Legaspi.,NA,1722,Unidad Habitacional,18 de Marzo,44960,039,Guadalajara,0001,Guadalajara,14,Jalisco,13,Centro Guadalajara,20.6381,-103.3782,1975-03-01 00:00:00.000,Activa,NA,Muy Bajo,NA,TRUE
Occidente,JCIMS000511,14UA79,142409,140139252110,14,Jalisco,Jalisco,2110,Primer Nivel,UMF 79 Guadalajara,25,UMF,79,NA,"Calle De Veracruz , No.1251 Barrio Artesanos C.P.44200, Municipio Guadalajara,Jalisco",Calle,De Veracruz,y Mariano Barcena,1251,Barrio,Artesanos,44200,039,Guadalajara,0001,Guadalajara,14,Jalisco,13,Centro Guadalajara,20.6915,-103.3543,1993-04-01 00:00:00.000,Activa,NA,Muy Bajo,NA,TRUE
Occidente,JCIMS000535,14UA91,142410,140143252110,14,Jalisco,Jalisco,2110,Primer Nivel,UMF 91 El Fresno,25,UMF,91,NA,"Calle Cerezo, No.1476 Colonia del Fresno 1era. Sección C.P.44900, Municipio Guadalajara,Jalisco",Calle,Cerezo,NA,1476,Colonia,del Fresno 1era. Sección,44900,039,Guadalajara,0001,Guadalajara,14,Jalisco,13,Centro Guadalajara,20.6576,-103.3776,1992-01-01 00:00:00.000,Activa,NA,Muy Bajo,NA,TRUE
Occidente,JCIMS000523,14UA88,142411,140144252110,14,Jalisco,Jalisco,2110,Primer Nivel,UMF 88 Guadalajara,25,UMF,88,NA,"Avenida Jaime Torres Bodet , No.3070 Unidad Habitacional El Sauz INFONAVIT C.P.44987, Municipio Guadalajara,Jalisco",Avenida,Jaime Torres Bodet,y Zanzibar,3070,Unidad Habitacional,El Sauz INFONAVIT,44987,039,Guadalajara,0001,Guadalajara,14,Jalisco,13,Centro Guadalajara,20.6231,-103.3951,1988-01-01 00:00:00.000,Activa,NA,Muy Bajo,NA,TRUE
Occidente,JCIMS000494,14UA55,142412,140149252110,14,Jalisco,Jalisco,2110,Primer Nivel,UMF 55 Guadalajara,25,UMF,55,NA,"Calle Purísima, No.3131 Colonia Chapalita C.P.44520, Municipio Guadalajara,Jalisco",Calle,Purísima,NA,3131,Colonia,Chapalita,44520,039,Guadalajara,0001,Guadalajara,14,Jalisco,13,Centro Guadalajara,20.6626,-103.3945,1981-02-01 00:00:00.000,Activa,NA,Muy Bajo,NA,TRUE
Occidente,JCIMS000400,14UAG7,142413,140157252110,14,Jalisco,Jalisco,2110,Primer Nivel,UMF 167 H. Provincia,25,UMF,167,NA,"Calle San Lorenzo, No.360 Colonia Agustín Yáñez (La Florida) C.P.44790, Municipio Guadalajara,Jalisco",Calle,San Lorenzo,NA,360,Colonia,Agustín Yáñez (La Florida),44790,039,Guadalajara,0001,Guadalajara,14,Jalisco,13,Centro Guadalajara,20.6667,-103.2947,1990-06-01 00:00:00.000,Activa,NA,Muy Bajo,NA,TRUE
Occidente,JCIMS000371,14HA46,140502,140168062151,14,Jalisco,Jalisco,2151,Segundo Nivel,HGR 46 Guadalajara,06,HGR,46,NA,"Avenida Lázaro Cárdenas, No.1060 Colonia 8 de Julio C.P.44910, Municipio Guadalajara,Jalisco",Avenida,Lázaro Cárdenas,NA,1060,Colonia,8 de Julio,44910,039,Guadalajara,0001,Guadalajara,14,Jalisco,13,Centro Guadalajara,20.6475,-103.3622,1998-04-01 00:00:00.000,Activa,NA,Muy Bajo,NA,NA
Occidente,JCIMS000383,14LC01,143202,140172342151,14,Jalisco,Jalisco,2151,Apoyo,Laboratorio Citología Exfoliativa,34,LRCE,NA,NA,"Calle Magisterio , No.1433 Colonia Observatorio C.P.44266, Municipio Guadalajara,Jalisco",Calle,Magisterio,y Mar Rojo,1433,Colonia,Observatorio,44266,039,Guadalajara,0001,Guadalajara,14,Jalisco,13,Centro Guadalajara,20.6975,-103.3493,2005-05-01 00:00:00.000,Activa,NA,Muy Bajo,NA,NA
Occidente,JCIMS000465,14UA49,142414,140198252110,14,Jalisco,Jalisco,2110,Primer Nivel,UMF 49 Guadalajara,25,UMF,49,NA,"Calle Cuitlahuac, No.769 Colonia Obrera C.P.44420, Municipio Guadalajara,Jalisco",Calle,Cuitlahuac,NA,769,Colonia,Obrera,44420,039,Guadalajara,0001,Guadalajara,14,Jalisco,13,Centro Guadalajara,20.6639,-103.33704,1979-05-01 00:00:00.000,Activa,NA,Muy Bajo,NA,TRUE
Occidente,JCIMS000716,14UB05,142201,140201202110,14,Jalisco,Jalisco,2110,Primer Nivel,UMFH 5 El Salto,20,UMFH,5,NA,"Calle 70 , No.788 Pueblo El Salto Centro C.P.45680, Municipio El Salto,Jalisco",Calle,70,NA,788,Pueblo,El Salto Centro,45680,070,El Salto,0001,El Salto,14,Jalisco,11,Centro Tonalá,20.5147,-103.1804,1961-05-01 00:00:00.000,Activa,NA,Muy Bajo,NA,TRUE
Occidente,JCIMS001071,14HF27,140401,140302052151,14,Jalisco,Jalisco,2151,Segundo Nivel,HGSMF 27 Villa Corona,05,HGSMF,27,NA,"Calle Hidalgo, No.187 Colonia Villa Corona Centro C.P.45730, Municipio Villa Corona,Jalisco",Calle,Hidalgo,NA,187,Colonia,Villa Corona Centro,45730,114,Villa Corona,0001,Villa Corona,14,Jalisco,12,Villa Corona,20.4133,-103.6658,1964-06-01 00:00:00.000,Activa,NA,Bajo,NA,TRUE
Occidente,JCIMS000033,14UA30,142415,140402252110,14,Jalisco,Jalisco,2110,Primer Nivel,UMF 30 Bella Vista,25,UMF,30,NA,"Calle José Isabel Villanueva, No.38 Estación Bellavista C.P.45720, Municipio Acatlán de Juárez,Jalisco",Calle,José Isabel Villanueva,NA,38,Estación,Bellavista,45720,002,Acatlán de Juárez,0002,Bellavista,14,Jalisco,12,Centro Tlaquepaque,20.4329,-103.636,1975-01-01 00:00:00.000,Activa,NA,Muy Bajo,NA,TRUE
Occidente,JCIMS000803,14HD26,140201,140501022151,14,Jalisco,Jalisco,2151,Segundo Nivel,HGZMF 26 Tala,02,HGZMF,26,NA,"Calle Simon Bolivar, No.20 Colonia Tala Centro C.P.45300, Municipio Tala,Jalisco",Calle,Simon Bolivar,NA,20,Colonia,Tala Centro,45300,083,Tala,0001,Tala,14,Jalisco,09,Ameca,20.6526,-103.71,1969-06-01 00:00:00.000,Activa,NA,Muy Bajo,NA,TRUE
Occidente,JCIMS000050,14UA11,142416,140602252110,14,Jalisco,Jalisco,2110,Primer Nivel,UMF 11 Amatitan,25,UMF,11,NA,"Calle Nebulosa , No.10 Colonia Puerta del Sol C.P.45380, Municipio Amatitán,Jalisco",Calle,Nebulosa,NA,10,Colonia,Puerta del Sol,45380,005,Amatitán,0001,Amatitán,14,Jalisco,09,Ameca,20.6754,-103.8667,1962-01-01 00:00:00.000,Activa,NA,Muy Bajo,NA,TRUE
Occidente,JCIMS000103,14HD20,140202,140704022151,14,Jalisco,Jalisco,2151,Segundo Nivel,HGZMF 20 Autlan Navarro,02,HGZMF,20,NA,"Calle Jaime Llamas, No.5 Colonia Puerta de La Costa C.P.48900, Municipio Autlán de Navarro,Jalisco",Calle,Jaime Llamas,NA,5,Colonia,Puerta de La Costa,48900,015,Autlán de Navarro,0001,Autlán de Navarro,14,Jalisco,07,Autlán,19.7721,-104.3622,1970-06-01 00:00:00.000,Activa,NA,Muy Bajo,NA,TRUE
Occidente,JCIMS000161,14HF28,140402,140801052151,14,Jalisco,Jalisco,2151,Segundo Nivel,HGSMF 28 Casimiro Castillo,05,HGSMF,28,NA,"Calle Autlan , No.5 Colonia Casimiro Castillo Centro C.P.48930, Municipio Casimiro Castillo,Jalisco",Calle,Autlan,NA,5,Colonia,Casimiro Castillo Centro,48930,021,Casimiro Castillo,0001,La Resolana,14,Jalisco,07,Autlán,19.6025,-104.4424,1971-11-01 00:00:00.000,Activa,NA,Bajo,NA,TRUE
Occidente,JCIMS000943,14UB10,142202,140903202110,14,Jalisco,Jalisco,2110,Primer Nivel,UMFH 10 Tequila,20,UMFH,10,NA,"Avenida Sixto Gijon, No.223 Colonia Tequila Centro C.P.46400, Municipio Tequila,Jalisco",Avenida,Sixto Gijon,NA,223,Colonia,Tequila Centro,46400,094,Tequila,0001,Tequila,14,Jalisco,09,Ameca,19.9906,-104.7801,1969-08-01 00:00:00.000,Activa,NA,Muy Bajo,NA,TRUE
Occidente,JCIMS000062,14UB24,142203,141001202110,14,Jalisco,Jalisco,2110,Primer Nivel,UMFH 24 Ameca,20,UMFH,24,NA,"Calzada Gobernador Flavio Romero de Velasco , No.178 Colonia Ameca Centro C.P.46600, Municipio Ameca,Jalisco",Calzada,Gobernador Flavio Romero de Velasco,y López Mateos,178,Colonia,Ameca Centro,46600,006,Ameca,0001,Ameca,14,Jalisco,09,Ameca,20.5388,-104.0446,1969-05-01 00:00:00.000,Activa,NA,Muy Bajo,NA,TRUE
Occidente,JCIMS000045,14UB31,142204,141102202110,14,Jalisco,Jalisco,2110,Primer Nivel,UMFH 31 Ahualulco,20,UMFH,31,NA,"Calle José María Mercado, No.262 Colonia Ahualulco de Mercado Centro C.P.46730, Municipio Ahualulco de Mercado,Jalisco",Calle,José María Mercado,NA,262,Colonia,Ahualulco de Mercado Centro,46730,003,Ahualulco de Mercado,0001,Ahualulco de Mercado,14,Jalisco,09,Ameca,20.7067,-103.9758,1976-09-01 00:00:00.000,Activa,NA,Muy Bajo,NA,TRUE
Occidente,JCIMS000931,14UAG8,142417,141201252110,14,Jalisco,Jalisco,2110,Primer Nivel,UMF 168 Tepatitlán,25,UMF,168,NA,"Calle Hidalgo esq Aztecas, No.360 Colonia Libramiento Sur C.P.47655, Municipio Tepatitlán de Morelos,Jalisco",Calle,Hidalgo esq Aztecas,NA,360,Colonia,Libramiento Sur,47655,093,Tepatitlán de Morelos,0001,Tepatitlán de Morelos,14,Jalisco,03,Tepatitlán,20.8079,-102.7609,1964-09-01 00:00:00.000,Activa,NA,Muy Bajo,NA,TRUE
Occidente,JCIMS000914,14HC21,140102,141203012151,14,Jalisco,Jalisco,2151,Segundo Nivel,HGZ 21 Tepatitlán,01,HGZ,21,NA,"Circuito Su Santidad Juan Pablo II, No.100 Colonia Fraccionamiento los Sauces C.P.47639, Municipio Tepatitlán de Morelos,Jalisco",Circuito,Su Santidad Juan Pablo II,NA,100,Colonia,Fraccionamiento los Sauces,47639,093,Tepatitlán de Morelos,0001,Tepatitlán de Morelos,14,Jalisco,03,Tepatitlán,20.8432,-102.7438,1964-09-01 00:00:00.000,Activa,NA,Muy Bajo,NA,NA
Occidente,JCIMS000016,14UAC8,142418,141204252110,14,Jalisco,Jalisco,2110,Primer Nivel,UMF 128 Acatic,25,UMF,128,NA,"Calle Benito Juárez, No.239 Pueblo Acatic C.P.45470, Municipio Acatic,Jalisco",Calle,Benito Juárez,NA,239,Pueblo,Acatic,45470,001,Acatic,0001,Acatic,14,Jalisco,03,Tepatitlán,20.7696,-102.9113,2000-08-01 00:00:00.000,Activa,NA,Bajo,NA,TRUE
Occidente,JCIMS000926,14UAF9,142419,141208252110,14,Jalisco,Jalisco,2110,Primer Nivel,UMF 159 Jesús María,25,UMF,159,NA,"Avenida González Gallo, No.220 Pueblo Jesús María C.P.47950, Municipio Tepatitlán de Morelos,Jalisco",Avenida,González Gallo,NA,220,Pueblo,Jesús María,47950,093,Tepatitlán de Morelos,0001,Tepatitlán de Morelos,14,Jalisco,03,Tepatitlán,20.61008,-102.2209,2003-04-01 00:00:00.000,Activa,NA,Muy Bajo,NA,TRUE
Occidente,JCIMS000091,14UB22,142205,141303202110,14,Jalisco,Jalisco,2110,Primer Nivel,UMFH 22 Atotonilco,20,UMFH,22,NA,"Calle Lic. Adolfo Ruiz Cortinez , No.42 Colonia San Felipe C.P.47750, Municipio Atotonilco El Alto,Jalisco",Calle,Lic. Adolfo Ruiz Cortinez,e Independencia,42,Colonia,San Felipe,47750,013,Atotonilco El Alto,0001,Atotonilco El Alto,14,Jalisco,04,La Barca,20.5484,-102.5162,1972-08-01 00:00:00.000,Activa,NA,Muy Bajo,NA,TRUE
Occidente,JCIMS000144,14UB23,142206,141403202110,14,Jalisco,Jalisco,2110,Primer Nivel,UMFH 23 La Barca,20,UMFH,23,NA,"Calle Lazáro Cárdenas , No.84 Colonia La Barca Centro C.P.47910, Municipio La Barca,Jalisco",Calle,Lazáro Cárdenas,entre Guillermo Prieto y Felipe Ángeles,84,Colonia,La Barca Centro,47910,018,La Barca,0001,La Barca,14,Jalisco,04,La Barca,20.2894,-102.5516,1972-09-01 00:00:00.000,Activa,NA,Bajo,NA,TRUE
Occidente,JCIMS000651,14HD06,140203,141501022151,14,Jalisco,Jalisco,2151,Segundo Nivel,HGZMF 6 Ocotlán,02,HGZMF,6,NA,"Calle Delgadillo Araujo, No.60 Colonia Florida C.P.47820, Municipio Ocotlán,Jalisco",Calle,Delgadillo Araujo,NA,60,Colonia,Florida,47820,063,Ocotlán,0001,Ocotlán,14,Jalisco,04,La Barca,20.3554,-102.7776,1973-09-01 00:00:00.000,Activa,NA,Muy Bajo,NA,TRUE
Occidente,JCIMS000663,14UAG9,142420,141506252110,14,Jalisco,Jalisco,2110,Primer Nivel,UMF 169 Ocotlán,25,UMF,169,NA,"Calle Zaragoza, No.602 Colonia Rivera de Zula C.P.47890, Municipio Ocotlán,Jalisco",Calle,Zaragoza,NA,602,Colonia,Rivera de Zula,47890,063,Ocotlán,0001,Ocotlán,14,Jalisco,04,La Barca,20.3571,-102.7654,1990-07-01 00:00:00.000,Activa,NA,Muy Bajo,NA,TRUE
Occidente,JCIMS000610,14UAH7,142493,141604252110,14,Jalisco,Jalisco,2110,Primer Nivel,UMF 177 Lagos de Moreno,25,UMF,177,NA,"Calle Hernando de Martell, No.65 Colonia Lagos de Moreno Centro C.P.47400, Municipio Lagos de Moreno,Jalisco",Calle,Hernando de Martell,NA,65,Colonia,Lagos de Moreno Centro,47400,053,Lagos de Moreno,0001,Lagos de Moreno,14,Jalisco,02,Lagos de Moreno,21.3586,-101.9297,2006-07-01 00:00:00.000,Activa,NA,Bajo,NA,TRUE
Occidente,JCIMS001264,14HC07,140103,141609012151,14,Jalisco,Jalisco,2151,Segundo Nivel,HGZ-UMAA 7 Lagos de Moreno,01,HGZ-UMAA,7,NA,"Avenida El Tepeyac , No.768 Colonia Tepeyac 2da. Sección C.P.47410, Municipio Lagos de Moreno,Jalisco",Avenida,El Tepeyac,esquina Juan Diego,768,Colonia,Tepeyac 2da. Sección,47410,053,Lagos de Moreno,0001,Lagos de Moreno,14,Jalisco,02,Lagos de Moreno,21.37773,-101.9224,2006-07-01 00:00:00.000,Activa,NA,Bajo,NA,NA
Occidente,JCIMS001264,14HC07,140103,141609UA2151,14,Jalisco,Jalisco,2151,Segundo Nivel,UMAA 7 Lagos de Moreno,UA,UMAA,7,NA,"Avenida El Tepeyac , No.768 Colonia Tepeyac 2da. Sección C.P.47410, Municipio Lagos de Moreno,Jalisco",Avenida,El Tepeyac,esquina Juan Diego,768,Colonia,Tepeyac 2da. Sección,47410,053,Lagos de Moreno,0001,Lagos de Moreno,14,Jalisco,02,Lagos de Moreno,21.3777,-101.9224,2006-07-01 00:00:00.000,Activa,NA,Bajo,NA,NA
Occidente,JCIMS000820,14HF15,140404,141701052151,14,Jalisco,Jalisco,2151,Segundo Nivel,HGSMF 15 Tamazula,05,HGSMF,15,NA,"Avenida José María Martínez, No.1463 Colonia Tamazula de Gordiano Centro C.P.49650, Municipio Tamazula de Gordiano,Jalisco",Avenida,José María Martínez,NA,1463,Colonia,Tamazula de Gordiano Centro,49650,085,Tamazula de Gordiano,0001,Tamazula de Gordiano,14,Jalisco,05,Tamazula,19.6927,-103.2392,1965-05-01 00:00:00.000,Activa,NA,Bajo,NA,TRUE
Occidente,JCIMS000861,14UB16,142207,141801202110,14,Jalisco,Jalisco,2110,Primer Nivel,UMFH 16 Tecalitlán,20,UMFH,16,NA,"Calle Benito Juárez, No.258 Colonia Tecalitlán Centro C.P.49900, Municipio Tecalitlán,Jalisco",Calle,Benito Juárez,NA,258,Colonia,Tecalitlán Centro,49900,087,Tecalitlán,0001,Tecalitlán,14,Jalisco,05,Tamazula,19.6862003,-103.7425,1965-01-01 00:00:00.000,Activa,NA,Bajo,NA,TRUE
Occidente,JCIMS000675,14UB13,142208,141901202110,14,Jalisco,Jalisco,2110,Primer Nivel,UMFH 13 Pihuamo,20,UMFH,13,NA,"Carretera Guadalajara-Pihuamo Km 220, No.S/N Ciudad Pihuamo C.P.49870, Municipio Pihuamo,Jalisco",Carretera,Guadalajara-Pihuamo Km 220,NA,S/N,Ciudad,Pihuamo,49870,065,Pihuamo,0001,Pihuamo,14,Jalisco,05,Tamazula,19.2542,-103.3843,1965-01-01 00:00:00.000,Activa,NA,Bajo,NA,TRUE
Occidente,JCIMS001030,14UB19,142209,142002202110,14,Jalisco,Jalisco,2110,Primer Nivel,UMFH 19 Tuxpan,20,UMFH,19,NA,"Avenida Francisco I Madero, No.422 Colonia Floresta C.P.49810, Municipio Tuxpan,Jalisco",Avenida,Francisco I Madero,NA,422,Colonia,Floresta,49810,108,Tuxpan,0001,Tuxpan,14,Jalisco,06,Ciudad Guzmán,19.5568,-103.3868,1972-02-01 00:00:00.000,Activa,NA,Bajo,NA,TRUE
Occidente,JCIMS001165,14UB18,142210,142102202110,14,Jalisco,Jalisco,2110,Primer Nivel,UMFH 18 Zapotiltic,20,UMFH,18,NA,"Calle Mariano Escobedo, No.134 Colonia Zapotiltic Centro C.P.49600, Municipio Zapotiltic,Jalisco",Calle,Mariano Escobedo,NA,134,Colonia,Zapotiltic Centro,49600,121,Zapotiltic,0001,Zapotiltic,14,Jalisco,06,Ciudad Guzmán,19.6286,-103.4158,1972-02-01 00:00:00.000,Activa,NA,Muy Bajo,NA,TRUE
Occidente,JCIMS000190,14HD09,140204,142203022151,14,Jalisco,Jalisco,2151,Segundo Nivel,HGZMF 9 Cd. Guzmán,02,HGZMF,9,NA,"Avenida Cristobal Colon esq Gante, No.750 Colonia Ciudad Guzmán Centro C.P.49000, Municipio Zapotlán El Grande,Jalisco",Avenida,Cristobal Colon esq Gante,NA,750,Colonia,Ciudad Guzmán Centro,49000,023,Zapotlán El Grande,0001,Ciudad Guzmán,14,Jalisco,06,Ciudad Guzmán,19.7195,-103.4603,1970-05-01 00:00:00.000,Activa,NA,Muy Bajo,NA,TRUE
Occidente,JCIMS001293,14UB17,142211,142302202110,14,Jalisco,Jalisco,2110,Primer Nivel,UMFH 17 Atentique,20,UMFH,17,NA,"Calle Hidalgo, No.10 Pueblo Atenquique C.P.49820, Municipio Atenquique,Jalisco",Calle,Hidalgo,NA,10,Pueblo,Atenquique,49820,108,Atenquique,0005,Atenquique,14,Jalisco,06,Ciudad Guzmán,19.5259,-103.4397,1972-02-01 00:00:00.000,Activa,NA,NE,NA,TRUE
Occidente,JCIMS000086,14UA12,142421,142501252110,14,Jalisco,Jalisco,2110,Primer Nivel,UMF 12 El Arenal,25,UMF,12,NA,"Calle Hidalgo , No.77 Pueblo El Arenal C.P.45350, Municipio El Arenal,Jalisco",Calle,Hidalgo,y 5 de Mayo,77,Pueblo,El Arenal,45350,009,El Arenal,0001,El Arenal,14,Jalisco,09,Ameca,20.7757,-103.69603,1985-01-01 00:00:00.000,Activa,NA,Muy Bajo,NA,TRUE
Occidente,JCIMS000680,14UA95,142422,142603252110,14,Jalisco,Jalisco,2110,Primer Nivel,UMF 95 Poncitlán,25,UMF,95,NA,"Calle Santa María, No.210 Colonia Poncitlán Centro C.P.45950, Municipio Poncitlán,Jalisco",Calle,Santa María,entre Reforma y Vicente Flores,210,Colonia,Poncitlán Centro,45950,066,Poncitlán,0001,Poncitlán,14,Jalisco,04,La Barca,20.3799,-102.9245,1986-12-01 00:00:00.000,Activa,NA,Bajo,NA,TRUE
Occidente,JCIMS000021,14UA56,142423,142701252110,14,Jalisco,Jalisco,2110,Primer Nivel,UMF 56 Acatlán,25,UMF,56,NA,"Calle Ramon Corona, No.57 Colonia Acatlán de Juárez C.P.45700, Municipio Acatlán de Juárez,Jalisco",Calle,Ramon Corona,NA,57,Colonia,Acatlán de Juárez,45700,002,Acatlán de Juárez,0001,Acatlán de Juárez,14,Jalisco,12,Centro Tlaquepaque,20.4233,-103.59408,1993-01-01 00:00:00.000,Activa,NA,Muy Bajo,NA,TRUE
Occidente,JCIMS000622,14UA97,142424,142801252110,14,Jalisco,Jalisco,2110,Primer Nivel,UMF 97 Magdalena,25,UMF,97,NA,"Calle Ignacio Zaragoza, No.29 Colonia Magdalena Centro C.P.46470, Municipio Magdalena,Jalisco",Calle,Ignacio Zaragoza,NA,29,Colonia,Magdalena Centro,46470,055,Magdalena,0001,Magdalena,14,Jalisco,09,Ameca,20.9174,-103.9928,1964-05-01 00:00:00.000,Activa,NA,Bajo,NA,TRUE
Occidente,JCIMS000441,14UA04,142425,142904252110,14,Jalisco,Jalisco,2110,Primer Nivel,UMF 4 Atemajac,25,UMF,4,NA,"Avenida Fidel Velázquez, No.1531 Unidad Habitacional Fidel Velázquez C.P.44216, Municipio Guadalajara,Jalisco",Avenida,Fidel Velázquez,NA,1531,Unidad Habitacional,Fidel Velázquez,44216,039,Guadalajara,0001,Guadalajara,14,Jalisco,13,Centro Guadalajara,20.7127,-103.3584,1957-01-01 00:00:00.000,Activa,NA,Muy Bajo,NA,TRUE
Occidente,JCIMS001083,14UA29,142426,143002252110,14,Jalisco,Jalisco,2110,Primer Nivel,UMF 29 Estipac,25,UMF,29,NA,"Avenida Hidalgo, No.344 Pueblo Villa Corona Centro C.P.45730, Municipio Villa Corona,Jalisco",Avenida,Hidalgo,NA,344,Pueblo,Villa Corona Centro,45730,114,Villa Corona,0005,Estipac,14,Jalisco,12,Centro Tlaquepaque,20.3636,-103.7302,1975-01-01 00:00:00.000,Activa,NA,Bajo,NA,TRUE
Occidente,JCIMS001013,14UA33,142427,143101252110,14,Jalisco,Jalisco,2110,Primer Nivel,UMF 33 S. Marcos,25,UMF,33,NA,"Calle Morelos, No.1 Pueblo San Marcos C.P.46540, Municipio Tonila,Jalisco",Calle,Morelos,NA,1,Pueblo,San Marcos,46540,103,Tonila,0015,San Marcos,14,Jalisco,06,Ciudad Guzmán,19.44509,-103.5062,1965-02-01 00:00:00.000,Activa,NA,Bajo,NA,TRUE
Occidente,JCIMS001153,14UA08,142428,143301252110,14,Jalisco,Jalisco,2110,Primer Nivel,UMF 8 Experiencia,25,UMF,8,NA,"Calle Imperio Norte (Sur) , No.134 Colonia La Experiencia C.P.45198, Municipio Zapopan,Jalisco",Calle,Imperio Norte (Sur),y Callejón Dr. Baeza Alzaga,134,Colonia,La Experiencia,45198,108,Zapopan,0001,Zapopan,14,Jalisco,10,Centro Zapopan,20.7298,-103.3377,1955-04-01 00:00:00.000,Activa,NA,Muy Bajo,NA,TRUE
Occidente,JCIMS000996,14UA43,142429,143402252110,14,Jalisco,Jalisco,2110,Primer Nivel,UMF 43 Tomatlán,25,UMF,43,NA,"Avenida Del Campesino, No.95 Pueblo Tomatlán C.P.48450, Municipio Tomatlán,Jalisco",Avenida,Del Campesino,NA,95,Pueblo,Tomatlán,48450,100,Tomatlán,0001,Tomatlán,14,Jalisco,08,Puerto Vallarta,19.9345,-105.2551,1980-12-01 00:00:00.000,Activa,NA,Bajo,NA,TRUE
Occidente,JCIMS001112,14HH01,142601,1435022E2151,14,Jalisco,Jalisco,2151,Segundo Nivel,CCSM 1 Oblatos,2E,CCSM,1,NA,"Avenida Laureles, No.55 Colonia Zapopan Centro C.P.45100, Municipio Zapopan,Jalisco",Avenida,Laureles,NA,55,Colonia,Zapopan Centro,45100,120,Zapopan,0001,Zapopan,14,Jalisco,10,Centro Zapopan,20.7213,-103.3893,1998-02-01 00:00:00.000,Activa,NA,Muy Bajo,NA,NA
Occidente,JCIMS001141,14UA53,142430,143504252110,14,Jalisco,Jalisco,2110,Primer Nivel,UMF 53 Zapopan,25,UMF,53,NA,"Avenida Juan Pablo II (Antes Los Laureles) , No.150 Colonia Zapopan Centro C.P.45100, Municipio Zapopan,Jalisco",Avenida,Juan Pablo II (Antes Los Laureles),e Hidalgo,150,Colonia,Zapopan Centro,45100,120,Zapopan,0001,Zapopan,14,Jalisco,10,Centro Zapopan,20.72101,-103.3895,1988-01-01 00:00:00.000,Activa,NA,Muy Bajo,NA,TRUE
Occidente,JCIMS001124,14UAH1,142432,143510252110,14,Jalisco,Jalisco,2110,Primer Nivel,UMF 171 Zapopan,25,UMF,171,NA,"Avenida Lopez Mateos Sur , No.3436 Colonia La Calma C.P.45070, Municipio Zapopan,Jalisco",Avenida,Lopez Mateos Sur,y Pedro Simon Laplace,3436,Colonia,La Calma,45070,120,Zapopan,0001,Zapopan,14,Jalisco,10,Centro Zapopan,20.6305,-103.41903,1991-01-01 00:00:00.000,Activa,NA,Muy Bajo,NA,TRUE
Occidente,JCIMS001276,14UAH8,142433,143513252110,14,Jalisco,Jalisco,2110,Primer Nivel,UMF 178 Guadalupe,25,UMF,178,NA,"Avenida Guadalupe , No.6215 Colonia Guadalupe C.P.45047, Municipio Zapopan,Jalisco",Avenida,Guadalupe,y Av. Piotr Tchaikovski,6215,Colonia,Guadalupe,45047,120,Zapopan,0001,Zapopan,14,Jalisco,10,Centro Zapopan,20.6534,-103.4577,2006-09-01 00:00:00.000,Activa,NA,Muy Bajo,NA,TRUE
Occidente,JCIMS001416,14UAI2,142496,143534252110,14,Jalisco,Jalisco,2110,Primer Nivel,UMF 182 Tesistán,25,UMF,182,NA,"Calle Capulín, No.S/N Colonia Tesistán C.P.45200, Municipio Zapopan,Jalisco",Calle,Capulín,NA,S/N,Colonia,Tesistán,45200,120,Zapopan,0001,Tesistán,14,Jalisco,10,Centro Zapopan,20.7869,-103.4825,2017-07-01 00:00:00.000,Activa,NA,Muy Bajo,NA,TRUE
Occidente,JCIMS001334,14UA98,142434,143601252110,14,Jalisco,Jalisco,2110,Primer Nivel,UMF 98 Teuchitlán,25,UMF,98,NA,"Prolongación Rojeña , No.28 Pueblo Teuchitlán C.P.46760, Municipio Teuchitlán,Jalisco",Prolongación,Rojeña,entre Hidalgo y Galeana,28,Pueblo,Teuchitlán,46760,095,Teuchitlán,0001,Teuchitlán,14,Jalisco,09,Ameca,20.6864,-103.8518,1993-06-01 00:00:00.000,Activa,NA,Bajo,NA,TRUE
Occidente,JCIMS000074,14UA44,142435,143701252110,14,Jalisco,Jalisco,2110,Primer Nivel,UMF 44 Arandas,25,UMF,44,NA,"Calle Alvaro Obregón, No.405 Colonia Arandas Centro C.P.47180, Municipio Arandas,Jalisco",Calle,Alvaro Obregón,NA,405,Colonia,Arandas Centro,47180,008,Arandas,0001,Arandas,14,Jalisco,03,Tepatitlán,20.7061,-102.3566,1971-08-01 00:00:00.000,Activa,NA,Muy Bajo,NA,TRUE
Occidente,JCIMS001486,14HE01,140701 ,143705082151,14,Jalisco,Jalisco,2151,Segundo Nivel,HGS 185 Arandas,08,HGS,185,NA,"Calle Primera Poniente No. 30, Colonia Arandas Centro, C.P. 47180 Municipio Arandas, Jalisco",Calle,Primera Poniente,Sexta Pte y Novena Pte,30,Colonia,Arandas Centro,47180,008,Arandas,0001,Arandas,14,Jalisco,03,Arandas Tepatitlan,20.712191120012,-102.372463583553,2023-01-26 00:00:00.000,Activa,NA,Alto,NA,NA
Occidente,JCIMS001421,14HY01,143701,143904302151,14,Jalisco,Jalisco,2151,Apoyo,UDDX CAMA Jalisco,30,UDDX,NA,NA,"Avenida Belisario Dominguez, No.3035 Colonia Jardines de Santa Isabel C.P.44300, Municipio Guadalajara,Jalisco",Avenida,Belisario Dominguez,NA,3035,Colonia,Jardines de Santa Isabel,44300,039,Guadalajara,0001,Guadalajara,14,Jalisco,13,Centro Guadalajara,20.7126,-103.3045,2019-09-27 00:00:00.000,Activa,NA,Muy Bajo,NA,NA
Occidente,JCIMS000214,14UA25,142436,144202252110,14,Jalisco,Jalisco,2110,Primer Nivel,UMF 25 La Sauceda,25,UMF,25,NA,"Calle Francisco Villa, No.67 Colonia Lázaro Cárdenas C.P.48504, Municipio Cocula,Jalisco",Calle,Francisco Villa,NA,67,Colonia,Lázaro Cárdenas,48504,024,Cocula,0022,La Sauceda,14,Jalisco,09,Ameca,20.4478,-104.0253,1975-01-01 00:00:00.000,Activa,NA,Bajo,NA,TRUE
Occidente,JCIMS000115,14UA37,142437,144301252110,14,Jalisco,Jalisco,2110,Primer Nivel,UMF 37 Ing. Melchor,25,UMF,37,NA,"Ingenio Melchor Ocampo, No.S/N Colonia El Grullo Centro C.P.48740, Municipio Autlán de Navarro,Jalisco",Ingenio,Melchor Ocampo,NA,S/N,Colonia,El Grullo Centro,48740,015,Autlán de Navarro,0001,Ingenio Melchor Ocampo,14,Jalisco,07,Autlán,19.7865,-104.2367,1976-06-01 00:00:00.000,Activa,NA,Muy bajo,NA,TRUE
Occidente,JCIMS000762,14UA38,142438,144402252110,14,Jalisco,Jalisco,2110,Primer Nivel,UMF 38 Buena Vista,25,UMF,38,NA,"Calle Libertad, No.69 Congregación Buenavista C.P.46775, Municipio San Martín Hidalgo,Jalisco",Calle,Libertad,NA,69,Congregación,Buenavista,46775,124,San Martín Hidalgo,0001,Buenavista,14,Jalisco,09,Ameca,20.5667,-103.85501,2007-10-01 00:00:00.000,Activa,NA,Bajo,NA,TRUE
Occidente,JCIMS000832,14UA36,142439,144502252110,14,Jalisco,Jalisco,2110,Primer Nivel,UMF 36 La Garita,25,UMF,36,NA,"Avenida Libertad, No.35 Ejido La Garita C.P.49967, Municipio Tamazula de Gordiano,Jalisco",Avenida,Libertad,NA,35,Ejido,La Garita,49967,085,Tamazula de Gordiano,0053,La Garita,14,Jalisco,05,Tamazula,19.7743,-103.12507,1976-01-01 00:00:00.000,Activa,NA,Bajo,NA,TRUE
Occidente,JCIMS000844,14UA35,142440,144602252110,14,Jalisco,Jalisco,2110,Primer Nivel,UMF 35 Vista Hermosa,25,UMF,35,NA,"Calle Fco I Madero, No.25 Ejido Vista Hermosa C.P.49657, Municipio Tamazula de Gordiano,Jalisco",Calle,Fco I Madero,NA,25,Ejido,Vista Hermosa,49657,085,Tamazula de Gordiano,0173,Vista Hermosa (Santa Cruz del Cortijo),14,Jalisco,05,Tamazula,19.6876,-103.3413,1976-01-01 00:00:00.000,Activa,NA,Bajo,NA,TRUE
Occidente,JCIMS001001,14UA93,142441,144701252110,14,Jalisco,Jalisco,2110,Primer Nivel,UMF 93 Tonalá,25,UMF,93,NA,"Avenida Tonaltecas, No.131 Colonia Lomas de Tónala C.P.45400, Municipio Tonalá,Jalisco",Avenida,Tonaltecas,NA,131,Colonia,Lomas de Tónala,45400,101,Tonalá,0001,Tonalá,14,Jalisco,11,Centro Tonalá,20.6185,-103.25007,1987-05-01 00:00:00.000,Activa,NA,Muy Bajo,NA,TRUE
Occidente,JCIMS001445,14UAI4,1424A1,144707252110,14,Jalisco,Jalisco,2110,Primer Nivel,UMF 184 Cerro de la Reina,25,UMF,184,NA,"Avenida Juárez, No.663 Colonia Coyula C.P.45410, Municipio Tonalá,Jalisco",Avenida,Juárez,NA,663,Colonia,Coyula,45410,101,Tonalá,0009,Coyula,14,Jalisco,11,Tonalá,20.6563,-103.2294,2019-02-26 00:00:00.000,Activa,NA,Muy Bajo,NA,TRUE
Occidente,JCIMS000972,14UA39,142442,144902252110,14,Jalisco,Jalisco,2110,Primer Nivel,UMF 39 Tlaquepaque,25,UMF,39,NA,"Calzada Dr. Roberto Michel, No.3340 Colonia Álamo Industrial C.P.45593, Municipio Tlaquepaque,Jalisco",Calzada,Dr. Roberto Michel,NA,3340,Colonia,Álamo Industrial,45593,098,Tlaquepaque,0001,Tlaquepaque,14,Jalisco,12,Centro Tlaquepaque,20.6264,-103.3239,1976-03-01 00:00:00.000,Activa,NA,Muy Bajo,NA,TRUE
Occidente,JCIMS000960,14UA54,142443,144905252110,14,Jalisco,Jalisco,2110,Primer Nivel,UMF 54 Tlaquepaque,25,UMF,54,NA,"Calle Vicente Guerrero, No.875 Colonia La Asunción C.P.45527, Municipio Tlaquepaque,Jalisco",Calle,Vicente Guerrero,NA,875,Colonia,La Asunción,45527,098,Tlaquepaque,0001,Tlaquepaque,14,Jalisco,12,Centro Tlaquepaque,20.63404,-103.2923,1990-03-01 00:00:00.000,Activa,NA,Muy Bajo,NA,TRUE
Occidente,JCIMS000692,14HD42,140205,145001012151,14,Jalisco,Jalisco,2151,Segundo Nivel,HGZ 42 Pto. Vallarta,01,HGZ,42,NA,"Boulevard Francisco Medina Ascencio , No.2066 Colonia Díaz Ordaz C.P.48310, Municipio Puerto Vallarta,Jalisco",Boulevard,Francisco Medina Ascencio,y Melchor Ocampo,2066,Colonia,Díaz Ordaz,48310,067,Puerto Vallarta,0001,Puerto Vallarta,14,Jalisco,08,Puerto Vallarta,20.6376,-105.232,1976-02-01 00:00:00.000,Activa,NA,Muy Bajo,NA,NA
Occidente,JCIMS000704,14UAH0,142444,145010252110,14,Jalisco,Jalisco,2110,Primer Nivel,UMF 170 Del Mar,25,UMF,170,NA,"Calle Oceano Pacifico Pte., No.350 Fraccionamiento El Palmar de Aramara C.P.48314, Municipio Puerto Vallarta,Jalisco",Calle,Oceano Pacifico Pte.,NA,350,Fraccionamiento,El Palmar de Aramara,48314,067,Puerto Vallarta,0001,Puerto Vallarta,14,Jalisco,08,Puerto Vallarta,20.6519,-105.2378,1994-10-01 00:00:00.000,Activa,NA,Muy Bajo,NA,TRUE
Occidente,JCIMS001346,14UAH9,142494,145018252110,14,Jalisco,Jalisco,2110,Primer Nivel,UMF 179 Las Parotas,25,UMF,179,NA,"Calle Sagitario , No.206 Colonia Bosque del Progreso C.P.48290, Municipio Puerto Vallarta,Jalisco",Calle,Sagitario,NA,206,Colonia,Bosque del Progreso,48290,067,Puerto Vallarta,0001,Puerto Vallarta,14,Jalisco,08,Puerto Vallarta,20.6753,-105.2073,2011-02-01 00:00:00.000,Activa,NA,Muy Bajo,NA,TRUE
Occidente,JCIMS000231,14UB40,142212,145301202110,14,Jalisco,Jalisco,2110,Primer Nivel,UMFH 40 Chapala,20,UMFH,40,NA,"Avenida Estación, No.95 Colonia Chapala Centro C.P.45900, Municipio Chapala,Jalisco",Avenida,Estación,NA,95,Colonia,Chapala Centro,45900,030,Chapala,0001,Chapala,14,Jalisco,04,La Barca,20.2914,-103.1867,1974-09-01 00:00:00.000,Activa,NA,Muy Bajo,NA,TRUE
Occidente,JCIMS001404,14UAI1,142495,145302252110,14,Jalisco,Jalisco,2110,Primer Nivel,UMF 181 Los Sabinos,25,UMF,181,NA,"Avenida Valle de los Sabinos , No.1 Hacienda La Capilla C.P.45870, Municipio Ixtlahuacán de Los Membrillos,Jalisco",Avenida,Valle de los Sabinos,NA,1,Hacienda,La Capilla,45870,044,Ixtlahuacán de Los Membrillos,0001,Ixtlahuacán de Los Membrillos,14,Jalisco,12,Centro Tlaquepaque,20.4187,-103.19009,2012-02-01 00:00:00.000,Activa,NA,Muy Bajo,NA,TRUE
Occidente,JCIMS001305,14UEF5,142491,145402252110,14,Jalisco,Jalisco,2110,Primer Nivel,UMF 155 Tizapan Alto,25,UMF,155,NA,"Calle Colon, No.94 Colonia Tizapan El Alto C.P.49400, Municipio Tizapan El Alto,Jalisco",Calle,Colon,NA,94,Colonia,Tizapan El Alto,49400,096,Tizapan El Alto,0001,Tizapan El Alto,14,Jalisco,04,La Barca,20.1597,-103.0448,2003-04-01 00:00:00.000,Activa,NA,Bajo,NA,TRUE
Occidente,JCIMS001322,14UEC0,142445,145601252110,14,Jalisco,Jalisco,2110,Primer Nivel,UMF 130 Ojuelos,25,UMF,130,NA,"Calle Guadalupe Victoria, No.38 Pueblo Ojuelos de Jalisco C.P.47540, Municipio Ojuelos de Jalisco,Jalisco",Calle,Guadalupe Victoria,NA,38,Pueblo,Ojuelos de Jalisco,47540,064,Ojuelos de Jalisco,0001,Ojuelos de Jalisco,14,Jalisco,02,Lagos de Moreno,21.8608,-101.5957,2003-04-01 00:00:00.000,Activa,NA,Bajo,NA,TRUE
Occidente,JCIMS001281,14UED3,142446,145701252110,14,Jalisco,Jalisco,2110,Primer Nivel,UMF 133 Unión,25,UMF,133,NA,"Calle Iturbide, No.9 Colonia Unión de San Antonio Centro C.P.47570, Municipio Unión de San Antonio,Jalisco",Calle,Iturbide,NA,9,Colonia,Unión de San Antonio Centro,47570,109,Unión de San Antonio,0001,Unión de San Antonio,14,Jalisco,02,Lagos de Moreno,21.1301,-102.01108,2003-04-01 00:00:00.000,Activa,NA,Bajo,NA,TRUE
Occidente,JCIMS001310,14UED2,142492,146303252110,14,Jalisco,Jalisco,2110,Primer Nivel,UMF 132 San Julián,25,UMF,132,NA,"Calle Zaragoza Poniente, No.106 Colonia San Julián Centro C.P.47170, Municipio San Julián,Jalisco",Calle,Zaragoza Poniente,NA,106,Colonia,San Julián Centro,47170,074,San Julián,0001,San Julián,14,Jalisco,03,Tepatitlán,21.0097,-102.1853,2003-06-01 00:00:00.000,Activa,NA,Muy Bajo,NA,TRUE
Occidente,JCIMS001194,14UAD7,142448,147302252110,14,Jalisco,Jalisco,2110,Primer Nivel,UMF 137 Antonio,25,UMF,137,NA,"Calle Hidalgo, No.73 Pueblo Antonio Escobedo C.P.46560, Municipio San Juanito de Escobedo,Jalisco",Calle,Hidalgo,NA,73,Pueblo,Antonio Escobedo,46560,109,San Juanito de Escobedo,0001,Antonio Escobedo,14,Jalisco,02,Lagos de Moreno,20.7991,-104.0044,2000-08-01 00:00:00.000,Activa,NA,Bajo,NA,TRUE
Occidente,JCIMS000721,14UA41,142449,149302252110,14,Jalisco,Jalisco,2110,Primer Nivel,UMF 41 S. Juan Lagos,25,UMF,41,NA,"Calle Moreno Valle, No.160 Colonia San Juan de los Lagos Centro C.P.47000, Municipio San Juan de Los Lagos,Jalisco",Calle,Moreno Valle,NA,160,Colonia,San Juan de los Lagos Centro,47000,073,San Juan de Los Lagos,0001,San Juan de Los Lagos,14,Jalisco,02,Lagos de Moreno,21.2501,-102.3285,1977-06-01 00:00:00.000,Activa,NA,Muy Bajo,NA,TRUE
Occidente,JCIMS001095,14UA94,142450,149402252110,14,Jalisco,Jalisco,2110,Primer Nivel,UMF 94 Yahualica,25,UMF,94,NA,"Calle Allende, No.97 Colonia Yahualica de González Gallo Centro C.P.47300, Municipio Yahualica de González Gallo,Jalisco",Calle,Allende,NA,97,Colonia,Yahualica de González Gallo Centro,47300,118,Yahualica de González Gallo,0001,Yahualica de González Gallo,14,Jalisco,03,Tepatitlán,21.178,-102.8843,1986-04-01 00:00:00.000,Activa,NA,Bajo,NA,TRUE
Occidente,JCIMS000202,14UA72,142451,149501252110,14,Jalisco,Jalisco,2110,Primer Nivel,UMF 72 Cocula,25,UMF,72,NA,"Calle Elias Nandino Vallarta, No.83 Colonia Cocula Centro C.P.48500, Municipio Cocula,Jalisco",Calle,Elias Nandino Vallarta,NA,83,Colonia,Cocula Centro,48500,024,Cocula,0001,Cocula,14,Jalisco,09,Ameca,20.3636,-103.8215,1987-11-01 00:00:00.000,Activa,NA,Bajo,NA,TRUE
Occidente,JCIMS000791,14UA62,142452,149601252110,14,Jalisco,Jalisco,2110,Primer Nivel,UMF 62 Sayula,25,UMF,62,NA,"Calzada Del Ejercito, No.308 Colonia Polanco C.P.49303, Municipio Sayula,Jalisco",Calzada,Del Ejercito,NA,308,Colonia,Polanco,49303,081,Sayula,0001,Sayula,14,Jalisco,01,Ciudad Guzmán,19.885,-103.5891,1980-01-01 00:00:00.000,Activa,NA,Muy Bajo,NA,TRUE
Occidente,JCIMS000552,14UA83,142453,149701252110,14,Jalisco,Jalisco,2110,Primer Nivel,UMF 83 La Huerta,25,UMF,83,NA,"Calle Hermanos Flores Magón, No.32 Pueblo La Huerta C.P.48850, Municipio La Huerta,Jalisco",Calle,Hermanos Flores Magón,NA,32,Pueblo,La Huerta,48850,043,La Huerta,0001,La Huerta,14,Jalisco,07,Autlán,19.4877,-104.6346,1981-01-01 00:00:00.000,Activa,NA,Bajo,NA,TRUE
Occidente,JCIMS000185,14UAG2,142454,149801252110,14,Jalisco,Jalisco,2110,Primer Nivel,UMF 162 Melaque,25,UMF,162,NA,"Calle Hidalgo, No.44 Congregación San Patricio O Melaque C.P.48980, Municipio Cihuatlán,Jalisco",Calle,Hidalgo,NA,44,Congregación,San Patricio O Melaque,48980,022,Cihuatlán,0033,Cihuatlán,14,Jalisco,07,Autlán,19.2234,-104.6999,2005-05-01 00:00:00.000,Activa,NA,Bajo,NA,TRUE
Occidente,JCIMS000890,14UA87,142455,14A102252110,14,Jalisco,Jalisco,2110,Primer Nivel,UMF 87 Teocaltiche,25,UMF,87,NA,"Calle Loma Bonita , No.12 Colonia Colinas de La Cruz C.P.47202, Municipio Teocaltiche,Jalisco",Calle,Loma Bonita,NA,12,Colonia,Colinas de La Cruz,47202,091,Teocaltiche,0001,Teocaltiche,14,Jalisco,02,Lagos de Moreno,21.446,-102.5696,1981-02-01 00:00:00.000,Activa,NA,Bajo,NA,TRUE
Occidente,JCIMS001170,14UA47,142456,14A301252110,14,Jalisco,Jalisco,2110,Primer Nivel,UMF 47 Zapotlanejo,25,UMF,47,NA,"Avenida Juárez, No.330 Ciudad Zapotlanejo C.P.45430, Municipio Zapotlanejo,Jalisco",Avenida,Juárez,NA,330,Ciudad,Zapotlanejo,45430,124,Zapotlanejo,0001,Zapotlanejo,14,Jalisco,11,Centro Tonalá,20.6224,-103.0563,1998-02-01 00:00:00.000,Activa,NA,Bajo,NA,TRUE
Occidente,JCIMS000325,14EE01,141101,14A601122153,4T,UMAE 20 HP CMN Occidente,Jalisco,2153,Tercer Nivel,HP CMN Occidente,12,HPED,NA,NA,"Calle Belizario Domínguez, No.735 Fraccionamiento Independencia Oriente C.P.44340, Municipio Guadalajara,Jalisco",Calle,Belizario Domínguez,NA,735,Fraccionamiento,Independencia Oriente,44340,039,Guadalajara,0001,Guadalajara,14,Jalisco,13,Centro Guadalajara,20.68305,-103.3297,1962-03-01 00:00:00.000,Activa,NA,Muy Bajo,NA,NA
Occidente,JCIMS000313,14EC01,141301,14A602142153,4M,UMAE 13 HGO CMN Occidente,Jalisco,2153,Tercer Nivel,HGO CMN Occidente,14,HGO,NA,NA,"Calle Belisario Domínguez , No.771 Fraccionamiento Independencia Oriente C.P.44340, Municipio Guadalajara,Jalisco",Calle,Belisario Domínguez,entre Salvador Quevedo y Sierra Morena,771,Fraccionamiento,Independencia Oriente,44340,039,Guadalajara,0001,Guadalajara,14,Jalisco,13,Centro Guadalajara,20.6856,-103.3283,1967-08-01 00:00:00.000,Activa,NA,Muy Bajo,NA,NA
Occidente,JCIMS000301,14EA01,141901,14A6031C2153,4C,UMAE 03 HES CMN Occidente,Jalisco,2153,Tercer Nivel,HES CMN Occidente,1C,HES,NA,NA,"Calle Belisario Domínguez , No.1000 Fraccionamiento Independencia Oriente C.P.44340, Municipio Guadalajara,Jalisco",Calle,Belisario Domínguez,entre Salvador Quevedo y Sierra Morena,1000,Fraccionamiento,Independencia Oriente,44340,039,Guadalajara,0001,Guadalajara,14,Jalisco,13,Centro Guadalajara,20.6864,-103.3288,1979-01-01 00:00:00.000,Activa,NA,Muy Bajo,NA,NA
Occidente,JCIMS000424,14UA03,142457,14A620252110,14,Jalisco,Jalisco,2110,Primer Nivel,UMF 3 Guadalajara,25,UMF,3,NA,"Calle Belizario Domínguez, No.815 Colonia Independencia Oriente C.P.44340, Municipio Guadalajara,Jalisco",Calle,Belizario Domínguez,NA,815,Colonia,Independencia Oriente,44340,039,Guadalajara,0001,Guadalajara,14,Jalisco,13,Centro Guadalajara,20.6848,-103.3289,1979-01-01 00:00:00.000,Activa,NA,Muy Bajo,NA,TRUE
Occidente,JCIMS000296,14EM01,143001,14A631322153,4C,UMAE 03 HES CMN Occidente,Jalisco,2153,Tercer Nivel,BS CMN Occidente,32,BS,NA,NA,"Calle Belisario Domínguez , No.1000 Fraccionamiento Independencia Oriente C.P.44340, Municipio Guadalajara,Jalisco",Calle,Belisario Domínguez,entre Salvador Quevedo y Sierra Morena,1000,Fraccionamiento,Independencia Oriente,44340,039,Guadalajara,0001,Guadalajara,14,Jalisco,13,Centro Guadalajara,20.6857,-103.3512,1979-01-01 00:00:00.000,Activa,NA,Muy Bajo,NA,NA
Occidente,JCIMS000354,14HAB0,140503,14A711062151,14,Jalisco,Jalisco,2151,Segundo Nivel,HGR 110 Oblatos,06,HGR,110,NA,"Calle Circunvalación Oblatos, No.2208 Colonia Circunvalación Oblatos C.P.44716, Municipio Guadalajara,Jalisco",Calle,Circunvalación Oblatos,NA,2208,Colonia,Circunvalación Oblatos,44716,039,Guadalajara,0001,Guadalajara,14,Jalisco,13,Centro Guadalajara,20.6889,-103.30402,1999-06-01 00:00:00.000,Activa,NA,Muy Bajo,NA,NA
Occidente,JCIMS000453,14UA48,142458,14A720252110,14,Jalisco,Jalisco,2110,Primer Nivel,UMF 48 Guadalajara,25,UMF,48,NA,"Avenida Circunvalacion , No.2208 Colonia Circunvalación Oblatos C.P.44716, Municipio Guadalajara,Jalisco",Avenida,Circunvalacion,NA,2208,Colonia,Circunvalación Oblatos,44716,039,Guadalajara,0001,Guadalajara,14,Jalisco,13,Centro Guadalajara,20.6897,-103.3021,1985-07-01 00:00:00.000,Activa,NA,Muy Bajo,NA,TRUE
Occidente,JCIMS000342,14HC89,140104,14A801012151,14,Jalisco,Jalisco,2151,Segundo Nivel,HGZ 89 Guadalajara,01,HGZ,89,NA,"Avenida Agustin Yañez, No.1930 Colonia Moderna C.P.44190, Municipio Guadalajara,Jalisco",Avenida,Agustin Yañez,NA,1930,Colonia,Moderna,44190,039,Guadalajara,0001,Guadalajara,14,Jalisco,13,Centro Guadalajara,20.6639,-103.368,1999-01-01 00:00:00.000,Activa,NA,Muy Bajo,NA,NA
Occidente,JCIMS000243,14UA50,142459,14B101252110,14,Jalisco,Jalisco,2110,Primer Nivel,UMF 50 Atotonilquillo,25,UMF,50,NA,"Calle Miguel Hidalgo, No.432 Colonia Atotonilquillo C.P.45930, Municipio Chapala,Jalisco",Calle,Miguel Hidalgo,NA,432,Colonia,Atotonilquillo,45930,030,Chapala,0003,Atotonilquillo,14,Jalisco,04,La Barca,20.3965,-103.1092,1974-09-01 00:00:00.000,Activa,NA,Muy Bajo,NA,TRUE
Occidente,JCIMS000564,14UA70,142460,14B201252110,14,Jalisco,Jalisco,2110,Primer Nivel,UMF 70 Careyes,25,UMF,70,NA,"Calle Pintores, Km 52 Carretera Melaque Pto Vallarta, No.12 Colonia Plan de Ayala C.P.48850, Municipio La Huerta,Jalisco",Calle,"Pintores, Km 52 Carretera Melaque Pto Vallarta",NA,12,Colonia,Plan de Ayala,48850,043,La Huerta,0137,Pueblo Careyes,14,Jalisco,07,Autlán,19.4439,-105.0232,1976-06-01 00:00:00.000,Activa,NA,Bajo,NA,TRUE
Occidente,JCIMS000260,14UA84,142461,14D201252110,14,Jalisco,Jalisco,2110,Primer Nivel,UMF 84 Encarnación de Díaz,25,UMF,84,NA,"Calle Allende , No.S/N Colonia La Villita C.P.47270, Municipio Encarnación de Díaz,Jalisco",Calle,Allende,y Ángel Anguiano.,S/N,Colonia,La Villita,47270,035,Encarnación de Díaz,0001,Encarnación de Díaz,14,Jalisco,02,Lagos de Moreno,21.5336,-102.2395,2006-06-01 00:00:00.000,Activa,NA,Bajo,NA,TRUE
Occidente,JCIMS000173,14UA80,142462,14D301252110,14,Jalisco,Jalisco,2110,Primer Nivel,UMF 80 Cihuatlán,25,UMF,80,NA,"Calle Primero de Mayo, No.10 Colonia Cihuatlán Centro C.P.48970, Municipio Cihuatlán,Jalisco",Calle,Primero de Mayo,NA,10,Colonia,Cihuatlán Centro,48970,022,Cihuatlán,0001,Cihuatlán,14,Jalisco,07,Autlán,19.236,-104.5718,1981-02-01 00:00:00.000,Activa,NA,Bajo,NA,TRUE
Occidente,JCIMS000576,14UA57,142463,14D401252110,14,Jalisco,Jalisco,2110,Primer Nivel,UMF 57 Ixtlahuacan,25,UMF,57,NA,"Calle Francisco Sarabia, No.52 Pueblo Ixtlahuacán del Rio C.P.45260, Municipio Ixtlahuacán del Río,Jalisco",Calle,Francisco Sarabia,NA,52,Pueblo,Ixtlahuacán del Rio,45260,045,Ixtlahuacán del Río,0001,Ixtlahuacán del Río,14,Jalisco,11,Centro Tonalá,20.864,-103.2363,1980-01-01 00:00:00.000,Activa,NA,Bajo,NA,TRUE
Occidente,JCIMS000955,14UA59,142464,14D601252110,14,Jalisco,Jalisco,2110,Primer Nivel,UMF 59 Tlajomulco,25,UMF,59,NA,"Calle Lerdo de Tejada, No.80 Colonia Rancho los Ocampo C.P.45640, Municipio Tlajomulco de Zúñiga,Jalisco",Calle,Lerdo de Tejada,NA,80,Colonia,Rancho los Ocampo,45640,097,Tlajomulco de Zúñiga,0001,Tlajomulco de Zúñiga,14,Jalisco,12,Centro Tlaquepaque,20.469,-103.4435,1981-01-01 00:00:00.000,Activa,NA,Muy Bajo,NA,TRUE
Occidente,JCIMS001392,14HAI0,140504,14D604062151,14,Jalisco,Jalisco,2151,Segundo Nivel,HGR 180 Tlajomulco,06,HGR,180,NA,"Carretera San. Sebastian-Santa Fe, No.1000 Fraccionamiento Los Encinos C.P.45653, Municipio Tlajomulco de Zúñiga,Jalisco",Carretera,San. Sebastian-Santa Fe,NA,1000,Fraccionamiento,Los Encinos,45653,097,Tlajomulco de Zúñiga,0001,Tlajomulco de Zúñiga,14,Jalisco,12,Centro Tlaquepaque,20.5072,-103.3988,2011-08-01 00:00:00.000,Activa,NA,Muy Bajo,NA,NA
Occidente,JCIMS000605,14UA58,142465,14D701252110,14,Jalisco,Jalisco,2110,Primer Nivel,UMF 58 Jocotepec,25,UMF,58,NA,"Calle Donato Guerra , No.97 Colonia Cruz Verde C.P.45803, Municipio Jocotepec,Jalisco",Calle,Donato Guerra,NA,97,Colonia,Cruz Verde,45803,050,Jocotepec,0001,Jocotepec,14,Jalisco,04,La Barca,20.2809,-103.4332,1981-01-01 00:00:00.000,Activa,NA,Bajo,NA,TRUE
Occidente,JCIMS001066,14UA63,142466,14D801252110,14,Jalisco,Jalisco,2110,Primer Nivel,UMF 63 San Gabriel,25,UMF,63,NA,"Calle Paseo de los Encinos, No.S/N Ciudad San Gabriel C.P.49700, Municipio San Gabriel,Jalisco",Calle,Paseo de los Encinos,NA,S/N,Ciudad,San Gabriel,49700,113,San Gabriel,0001,San Gabriel,14,Jalisco,06,Ciudad Guzmán,19.744063416746,-103.770739760385,1982-08-01 00:00:00.000,Activa,NA,Medio,NA,TRUE
Occidente,JCIMS001025,14UA67,142467,14D901252110,14,Jalisco,Jalisco,2110,Primer Nivel,UMF 67 Tototlán,25,UMF,67,NA,"Calle Miguel Hidalgo, No.190 Colonia Tototlan Centro C.P.47730, Municipio Tototlan,Jalisco",Calle,Miguel Hidalgo,NA,190,Colonia,Tototlan Centro,47730,104,Tototlan,0001,Totatiche,14,Jalisco,01,Colotlán,20.5419,-102.797,1987-03-01 00:00:00.000,Activa,NA,Bajo,NA,TRUE
Occidente,JCIMS000120,14UA66,142468,14E101252110,14,Jalisco,Jalisco,2110,Primer Nivel,UMF 66 Ayotlán,25,UMF,66,NA,"Calle José de Jesús Jiménez , No.3 Pueblo Ayotlán C.P.47930, Municipio Ayotlán,Jalisco",Calle,José de Jesús Jiménez,NA,3,Pueblo,Ayotlán,47930,016,Ayotlán,0001,Ayotlán,14,Jalisco,04,La Barca,20.5261,-102.3272,1981-02-01 00:00:00.000,Activa,NA,Bajo,NA,TRUE
Occidente,JCIMS000815,14UA74,142469,14E301252110,14,Jalisco,Jalisco,2110,Primer Nivel,UMF 74 Talpa Allende,25,UMF,74,NA,"Calle Independencia, No.118 A Colonia Talpa de Allende Centro C.P.48200, Municipio Talpa de Allende,Jalisco",Calle,Independencia,NA,118 A,Colonia,Talpa de Allende Centro,48200,084,Talpa de Allende,0001,Talpa de Allende,14,Jalisco,08,Puerto Vallarta,20.3895,-104.8224,1985-01-01 00:00:00.000,Activa,NA,Bajo,NA,TRUE
Occidente,JCIMS000634,14UA96,142470,14E401252110,14,Jalisco,Jalisco,2110,Primer Nivel,UMF 96 Mascota,25,UMF,96,NA,"Calle Francisco I. Madero, No.295 Ciudad Mascota C.P.46900, Municipio Mascota,Jalisco",Calle,Francisco I. Madero,NA,295,Ciudad,Mascota,46900,058,Mascota,0001,Mascota,14,Jalisco,08,Puerto Vallarta,20.5241,-104.7803,1991-07-01 00:00:00.000,Activa,NA,Muy Bajo,NA,TRUE
Occidente,JCIMS000750,14UA73,142471,14E501252110,14,Jalisco,Jalisco,2110,Primer Nivel,UMF 73 Martín Hidalgo,25,UMF,73,NA,"Calle Moctezuma, No.20 Colonia San Martín Hidalgo C.P.46770, Municipio San Martín Hidalgo,Jalisco",Calle,Moctezuma,NA,20,Colonia,San Martín Hidalgo,46770,077,San Martín Hidalgo,0001,San Martín Hidalgo,14,Jalisco,09,Ameca,20.4334,-103.9194,1981-02-01 00:00:00.000,Activa,NA,Bajo,NA,TRUE
Occidente,JCIMS000902,14UA76,142472,14E601252110,14,Jalisco,Jalisco,2110,Primer Nivel,UMF 76 Teocuitatlán,25,UMF,76,NA,"Calle Vicente Guerrero, No.100 Pueblo Teocuitatlán de Corona C.P.49250, Municipio Teocuitatlán de Corona,Jalisco",Calle,Vicente Guerrero,NA,100,Pueblo,Teocuitatlán de Corona,49250,092,Teocuitatlán de Corona,0001,Teocuitatlán de Corona,14,Jalisco,06,Ciudad Guzmán,20.0901,-103.378,1981-01-01 00:00:00.000,Activa,NA,Medio,NA,TRUE
Occidente,JCIMS001100,14UA77,142473,14E701252110,14,Jalisco,Jalisco,2110,Primer Nivel,UMF 77 Zacoalco,25,UMF,77,NA,"Calle Abasolo, No.20 Colonia El Calvario C.P.45754, Municipio Zacoalco de Torres,Jalisco",Calle,Abasolo,NA,20,Colonia,El Calvario,45754,119,Zacoalco de Torres,0001,Zacoalco de Torres,14,Jalisco,06,Ciudad Guzmán,20.221800000000002,-103.5746,1981-01-01 00:00:00.000,Activa,NA,Bajo,NA,TRUE
Occidente,JCIMS000774,14UA86,142474,14E801252110,14,Jalisco,Jalisco,2110,Primer Nivel,UMF 86 S. Miguel Alto,25,UMF,86,NA,"Calle Dr. José Trinidad Martínez, No.287 Colonia Aguacaliente C.P.47147, Municipio San Miguel El Alto,Jalisco",Calle,Dr. José Trinidad Martínez,NA,287,Colonia,Aguacaliente,47147,078,San Miguel El Alto,0001,San Miguel El Alto,14,Jalisco,03,Tepatitlán,21.0307,-102.4125,1981-02-01 00:00:00.000,Activa,NA,Bajo,NA,TRUE
Occidente,JCIMS000156,14UA68,142475,14E901252110,14,Jalisco,Jalisco,2110,Primer Nivel,UMF 68 Bolaños,25,UMF,68,NA,"Calle Menores, No.S/N Ciudad Bolaños C.P.46130, Municipio Bolaños,Jalisco",Calle,Menores,NA,S/N,Ciudad,Bolaños,46130,019,Bolaños,0001,Bolaños,14,Jalisco,01,Colotlán,21.8309,-103.7806,1981-03-01 00:00:00.000,Activa,NA,Muy Alto,NA,TRUE
Occidente,JCIMS000226,14UA60,142476,14F101252110,14,Jalisco,Jalisco,2110,Primer Nivel,UMF 60 Colotlán,25,UMF,60,NA,"Calle I. Zaragoza, No.15 Colonia Colotlán Centro C.P.46200, Municipio Colotlán,Jalisco",Calle,I. Zaragoza,NA,15,Colonia,Colotlán Centro,46200,025,Colotlán,0001,Colotlán,14,Jalisco,01,Colotlán,22.1165,-103.2674,1981-02-01 00:00:00.000,Activa,NA,Muy Bajo,NA,TRUE
Occidente,JCIMS000646,14UA61,142477,14F301252110,14,Jalisco,Jalisco,2110,Primer Nivel,UMF 61 Masamitla,25,UMF,61,NA,"Avenida 16 de Septiembre , No.69 Pueblo Mazamitla C.P.49500, Municipio Mazamitla,Jalisco",Avenida,16 de Septiembre,y Xicontencatl,69,Pueblo,Mazamitla,49500,059,Mazamitla,0001,Mazamitla,14,Jalisco,05,Tamazula,19.9212,-103.0168,1981-02-01 00:00:00.000,Activa,NA,Bajo,NA,TRUE
Occidente,JCIMS000856,14UA64,142478,14F401252110,14,Jalisco,Jalisco,2110,Primer Nivel,UMF 64 Tapalapa,25,UMF,64,NA,"Calle Federico Gálvez, No.19 Ciudad Tapalpa C.P.49340, Municipio Tapalpa,Jalisco",Calle,Federico Gálvez,NA,19,Ciudad,Tapalpa,49340,086,Tapalpa,0001,Tapalpa,14,Jalisco,06,Ciudad Guzmán,19.9408,-103.7542,1980-10-01 00:00:00.000,Activa,NA,Bajo,NA,TRUE
Occidente,JCIMS000284,14UA81,142479,14F501252110,14,Jalisco,Jalisco,2110,Primer Nivel,UMF 81 Grullo,25,UMF,81,NA,"Calle Marcelino Hernández, No.700 Colonia Santa Cecilia C.P.48744, Municipio El Grullo,Jalisco",Calle,Marcelino Hernández,NA,700,Colonia,Santa Cecilia,48744,037,El Grullo,0001,El Grullo,14,Jalisco,07,Autlán,19.8103,-104.2282,1981-02-01 00:00:00.000,Activa,NA,Muy Bajo,NA,TRUE
Occidente,JCIMS000132,14UA71,142480,14F601252110,14,Jalisco,Jalisco,2110,Primer Nivel,UMF 71 Ayutla,25,UMF,71,NA,"Prolongación 5 de Mayo, No.201 Pueblo Ayutla C.P.48050, Municipio Ayutla,Jalisco",Prolongación,5 de Mayo,NA,201,Pueblo,Ayutla,48050,017,Ayutla,0001,Ayutla,14,Jalisco,07,Autlán,20.1235,-104.3402,1981-02-01 00:00:00.000,Activa,NA,Bajo,NA,TRUE
Occidente,JCIMS001042,14UA82,142481,14F701252110,14,Jalisco,Jalisco,2110,Primer Nivel,UMF 82 Unión de Tula,25,UMF,82,NA,"Avenida Mexico Norte, No.323 Colonia Unión de San Antonio C.P.47570, Municipio Unión de San Antonio,Jalisco",Avenida,Mexico Norte,NA,323,Colonia,Unión de San Antonio,47570,109,Unión de San Antonio,0001,Unión de San Antonio,14,Jalisco,02,Lagos de Moreno,19.958,-104.2663,1981-01-01 00:00:00.000,Activa,NA,Bajo,NA,TRUE
Occidente,JCIMS001462,14UA65,142482,14F801252110,14,Jalisco,Jalisco,2110,Primer Nivel,UMF 65 Techaluta,25,UMF,65,NA,"Calle Emiliano Zapata , No.37 Colonia Techaluta C.P.49230, Municipio Techaluta de Montenegro,Jalisco",Calle,Emiliano Zapata,NA,37,Colonia,Techaluta,49230,089,Techaluta de Montenegro,0001,Techaluta de Montenegro,14,Jalisco,06,Ciudad Guzmán,20.0699,-103.5483,2017-09-01 00:00:00.000,Activa,NA,Bajo,NA,TRUE
Occidente,JCIMS000873,14UA75,142483,14F901252110,14,Jalisco,Jalisco,2110,Primer Nivel,UMF 75 Tecolotlán,25,UMF,75,NA,"Avenida Juárez, No.496 Ciudad Tecolotlan C.P.48540, Municipio Tecolotlán,Jalisco",Avenida,Juárez,NA,496,Ciudad,Tecolotlan,48540,088,Tecolotlán,0001,Tecolotlán,14,Jalisco,07,Autlán,20.194284418127,-104.041575897602,1981-02-01 00:00:00.000,Activa,NA,Bajo,NA,TRUE
Occidente,JCIMS000272,14UA69,142484,14H101252110,14,Jalisco,Jalisco,2110,Primer Nivel,UMF 69 Etzatlán,25,UMF,69,NA,"Calle Puebla , No.69 Colonia Etzatlan Centro C.P.46500, Municipio Etzatlán,Jalisco",Calle,Puebla,y Ocampo,69,Colonia,Etzatlan Centro,46500,036,Etzatlán,0001,Etzatlán,14,Jalisco,09,Ameca,20.771,-104.0778,1985-05-01 00:00:00.000,Activa,NA,Muy bajo,NA,TRUE
Occidente,JCIMS000581,14UA85,142485,14H201252110,14,Jalisco,Jalisco,2110,Primer Nivel,UMF 85 Jalostitlán,25,UMF,85,NA,"Calle Río Soto la Marina, No.42 Fraccionamiento Lago del Sol C.P.47124, Municipio Jalostotitlán,Jalisco",Calle,Río Soto la Marina,NA,42,Fraccionamiento,Lago del Sol,47124,046,Jalostotitlán,0001,Jalostotitlán,14,Jalisco,03,Tepatitlán,21.1572,-102.4634,1981-02-01 00:00:00.000,Activa,NA,Bajo,NA,TRUE
Occidente,JCIMS000593,14UAA0,142486,14H302252110,14,Jalisco,Jalisco,2110,Primer Nivel,UMF 100 Jamay,25,UMF,100,NA,"Calle Negrete, No.129 Colonia Jamay Centro C.P.47900, Municipio Jamay,Jalisco",Calle,Negrete,NA,129,Colonia,Jamay Centro,47900,047,Jamay,0001,Jamay,14,Jalisco,04,La Barca,20.2928,-102.7125,1989-01-01 00:00:00.000,Activa,NA,Bajo,NA,TRUE
Occidente,JCIMS000786,14UAB4,142487,14H601252110,14,Jalisco,Jalisco,2110,Primer Nivel,UMF 114 Gómez Farías,25,UMF,114,NA,"Calle Francisco Javier Mina, No.28 Pueblo San Sebastián del Sur C.P.49120, Municipio Gómez Farías,Jalisco",Calle,Francisco Javier Mina,NA,28,Pueblo,San Sebastián del Sur,49120,079,Gómez Farías,0001,San Sebastián del Sur,14,Jalisco,06,Ciudad Guzmán,19.7909,-103.4762,2001-04-01 00:00:00.000,Activa,NA,Bajo,NA,TRUE
Occidente,JCIMS000733,14UAA6,142488,14H801252110,14,Jalisco,Jalisco,2110,Primer Nivel,UMF 106 San Martín,25,UMF,106,NA,"Calle Emeterio Jiménez, No.9 Pueblo San Martin de Bolaños C.P.46350, Municipio San Martín de Bolaños,Jalisco",Calle,Emeterio Jiménez,NA,9,Pueblo,San Martin de Bolaños,46350,076,San Martín de Bolaños,0001,San Martín de Bolaños,14,Jalisco,01,Colotlán,21.6824,-103.8126,1980-01-01 00:00:00.000,Activa,NA,Bajo,NA,TRUE
Occidente,JCIMS001206,14UAG0,142489,14H901252110,14,Jalisco,Jalisco,2110,Primer Nivel,UMF 160 Capilla Gpe.,25,UMF,160,NA,"Avenida Antonio Aceves, No.321 Pueblo Capilla de Guadalupe C.P.47700, Municipio Tepatitlán de Morelos,Jalisco",Avenida,Antonio Aceves,NA,321,Pueblo,Capilla de Guadalupe,47700,093,Tepatitlán de Morelos,0001,Capilla de Guadalupe,14,Jalisco,01,Colotlán,20.8274,-102.5958,2005-05-01 00:00:00.000,Activa,NA,Muy Bajo,NA,TRUE
Occidente,JCIMS000255,14UAG5,142490,14J101252110,14,Jalisco,Jalisco,2110,Primer Nivel,UMF 165 Degollado,25,UMF,165,NA,"Prolongación Reforma, No.160 Pueblo Degollado C.P.47980, Municipio Degollado,Jalisco",Prolongación,Reforma,NA,160,Pueblo,Degollado,47980,033,Degollado,0001,Degollado,14,Jalisco,04,La Barca,20.4531,-102.1374,2006-07-01 00:00:00.000,Activa,NA,Bajo,NA,TRUE
Occidente,JCIMS001433,14UAI3,142497,14J202252110,14,Jalisco,Jalisco,2110,Primer Nivel,UMF 183 San Ignacio Cerro Gordo,25,UMF,183,NA,"Calle Niños Heroes , No.182 Colonia San Ignacio Cerro Gordo C.P.47190, Municipio San Ignacio Cerro Gordo ,Jalisco",Calle,Niños Heroes,NA,182,Colonia,San Ignacio Cerro Gordo,47190,125,San Ignacio Cerro Gordo,0001,Tepatitlán de Morelos,14,Jalisco,03,Tepatitlán,20.7469,-102.5295,2017-09-01 00:00:00.000,Activa,NA,Bajo,NA,TRUE
Occidente,NA,NA,NA,141604052151,14,Jalisco,Jalisco,2151,Segundo Nivel,HGSMF 7 LAGOS MORENO,05,HGSMF,7,NA,NA,NA,NA,NA,NA,NA,NA,NA,NA,NA,NA,NA,14,Jalisco,NA,NA,NA,NA,NA,Inactiva,01/julio/2006,NA,2006-07-01,NA
Occidente,NA,NA,NA,143508252110,14,Jalisco,Jalisco,2110,Primer Nivel,UMF 32 ZAPOPAN,25,UMF,32,NA,NA,NA,NA,NA,NA,NA,NA,NA,NA,NA,NA,NA,14,Jalisco,NA,NA,NA,NA,NA,Inactiva,01/septiembre/2006,NA,2006-09-01,NA
Occidente,NA,NA,NA,143701202110,14,Jalisco,Jalisco,2110,Primer Nivel,UMFH 44 ARANDAS,20,UMFH,44,NA,NA,NA,NA,NA,NA,NA,NA,NA,NA,NA,NA,NA,14,Jalisco,NA,NA,NA,NA,NA,Inactiva,01/abril/2003,NA,2003-04-01,NA
Occidente,NA,NA,NA,145001022151,14,Jalisco,Jalisco,2151,Segundo Nivel,HGZMF 42 PTO. VALLARTA,02,HGZMF,42,NA,NA,NA,NA,NA,NA,NA,NA,NA,NA,NA,NA,NA,14,Jalisco,NA,NA,NA,NA,NA,Inactiva,01/febrero/2011,NA,2011-02-01,NA
Occidente,NA,NA,NA,149101252110,14,Jalisco,Jalisco,2110,Primer Nivel,UMF 164 VENTA,25,UMF,164,NA,NA,NA,NA,NA,NA,NA,NA,NA,NA,NA,NA,NA,14,Jalisco,NA,NA,NA,NA,NA,Inactiva,01/diciembre/1993,NA,1993-12-01,NA
Occidente,NA,NA,NA,14A301202110,14,Jalisco,Jalisco,2110,Primer Nivel,UMFH 47 ZAPOTL,20,UMFH,47,NA,NA,NA,NA,NA,NA,NA,NA,NA,NA,NA,NA,NA,14,Jalisco,NA,NA,NA,NA,NA,Inactiva,01/febrero/1998,NA,1998-02-01,NA
Occidente,NA,NA,NA,14A801062151,14,Jalisco,Jalisco,2151,Segundo Nivel,HGZ 89 GUADALAJARA,06,HGR,89,NA,NA,NA,NA,NA,NA,NA,NA,NA,NA,NA,NA,NA,14,Jalisco,NA,NA,NA,NA,NA,Inactiva,01/enero/1999,NA,1999-01-01,NA
Occidente,NA,NA,NA,14H701252110,14,Jalisco,Jalisco,2110,Primer Nivel,UMF 170 PITALL,25,UMF,170,NA,NA,NA,NA,NA,NA,NA,NA,NA,NA,NA,NA,NA,14,Jalisco,NA,NA,NA,NA,NA,Inactiva,01/mayo/1994,NA,1994-05-01,NA
